[{"__geopoint__": true, "latitude": "49.01", "longitude": "2.548333333333333333333333333", "name": "---------------------------------------------------LFPG", "description": null}, {"__geopoint__": true, "latitude": "48.99166666666666666666666667", "longitude": "2.465", "name": "PG263", "description": null}, {"__geopoint__": true, "latitude": "48.985", "longitude": "2.346666666666666666666666667", "name": "PG264", "description": null}, {"__geopoint__": true, "latitude": "48.975", "longitude": "2.176666666666666666666666667", "name": "PG265", "description": null}, {"__geopoint__": true, "latitude": "49.785", "longitude": "2.368333333333333333333333333", "name": "ATREX", "description": null}, {"__geopoint__": true, "latitude": "50.37166666666666666666666667", "longitude": "2.026666666666666666666666667", "name": "VESAN", "description": null}, {"__geopoint__": true, "latitude": "50.65666666666666666666666667", "longitude": "1.636666666666666666666666667", "name": "RATUK", "description": null}, {"__geopoint__": true, "latitude": "50.78", "longitude": "1.466666666666666666666666667", "name": "SOVAT", "description": null}, {"__geopoint__": true, "latitude": "51.065", "longitude": "1.066666666666666666666666667", "name": "SANDY", "description": null}, {"__geopoint__": true, "latitude": "51.30333333333333333333333333", "longitude": "0.5966666666666666666666666667", "name": "DET", "description": null}, {"__geopoint__": true, "latitude": "51.75", "longitude": "-0.1066666666666666666666666667", "name": "BPK", "description": null}, {"__geopoint__": true, "latitude": "52.085", "longitude": "-0.4266666666666666666666666667", "name": "POTON", "description": null}, {"__geopoint__": true, "latitude": "52.225", "longitude": "-0.5633333333333333333333333333", "name": "BEDFO", "description": null}, {"__geopoint__": true, "latitude": "52.36", "longitude": "-0.695", "name": "EBOTO", "description": null}, {"__geopoint__": true, "latitude": "52.61", "longitude": "-0.9416666666666666666666666667", "name": "PIPIN", "description": null}, {"__geopoint__": true, "latitude": "52.74166666666666666666666667", "longitude": "-1.071666666666666666666666667", "name": "LESTA", "description": null}, {"__geopoint__": true, "latitude": "53.07833333333333333333333333", "longitude": "-1.605", "name": "TUMTI", "description": null}, {"__geopoint__": true, "latitude": "53.23833333333333333333333333", "longitude": "-1.861666666666666666666666667", "name": "RODOL", "description": null}, {"__geopoint__": true, "latitude": "53.6", "longitude": "-2.208333333333333333333333333", "name": "TENSO", "description": null}, {"__geopoint__": true, "latitude": "53.88833333333333333333333333", "longitude": "-3.49", "name": "BELOX", "description": null}, {"__geopoint__": true, "latitude": "53.96", "longitude": "-3.825", "name": "REMSI", "description": null}, {"__geopoint__": true, "latitude": "57.0", "longitude": "-10.0", "name": "GOMUP", "description": null}, {"__geopoint__": true, "latitude": "60.0", "longitude": "-20.0", "name": "", "description": null}, {"__geopoint__": true, "latitude": "61.0", "longitude": "-30.0", "name": "", "description": null}, {"__geopoint__": true, "latitude": "61.0", "longitude": "-40.0", "name": "", "description": null}, {"__geopoint__": true, "latitude": "59.0", "longitude": "-50.0", "name": "", "description": null}, {"__geopoint__": true, "latitude": "56.7", "longitude": "-57.0", "name": "CUDDY", "description": null}, {"__geopoint__": true, "latitude": "49.13333333333333333333333333", "longitude": "-68.22166666666666666666666667", "name": "7AFR/090/LFPG-KMIAYBC", "description": null}, {"__geopoint__": true, "latitude": "45.33833333333333333333333333", "longitude": "-71.86333333333333333333333333", "name": "MOBAL", "description": null}, {"__geopoint__": true, "latitude": "42.74666666666666666666666667", "longitude": "-73.80333333333333333333333333", "name": "ALB", "description": null}, {"__geopoint__": true, "latitude": "42.235", "longitude": "-74.03166666666666666666666667", "name": "ACOVE", "description": null}, {"__geopoint__": true, "latitude": "41.85666666666666666666666667", "longitude": "-74.19833333333333333333333333", "name": "WEETS", "description": null}, {"__geopoint__": true, "latitude": "41.54333333333333333333333333", "longitude": "-74.33333333333333333333333333", "name": "FLOSI", "description": null}, {"__geopoint__": true, "latitude": "41.24666666666666666666666667", "longitude": "-74.46166666666666666666666667", "name": "JEFFF", "description": null}, {"__geopoint__": true, "latitude": "41.06833333333333333333333333", "longitude": "-74.53833333333333333333333333", "name": "SAX", "description": null}, {"__geopoint__": true, "latitude": "38.345", "longitude": "-75.51", "name": "SBY", "description": null}, {"__geopoint__": true, "latitude": "36.89166666666666666666666667", "longitude": "-76.2", "name": "ORF", "description": null}, {"__geopoint__": true, "latitude": "36.44", "longitude": "-76.45", "name": "EDDYS", "description": null}, {"__geopoint__": true, "latitude": "35.97666666666666666666666667", "longitude": "-76.70333333333333333333333333", "name": "GILMA", "description": null}, {"__geopoint__": true, "latitude": "35.595", "longitude": "-76.91", "name": "CLAPY", "description": null}, {"__geopoint__": true, "latitude": "34.56833333333333333333333333", "longitude": "-77.45333333333333333333333333", "name": "DIW", "description": null}, {"__geopoint__": true, "latitude": "30.42", "longitude": "-78.34833333333333333333333333", "name": "OZENA", "description": null}, {"__geopoint__": true, "latitude": "29.4", "longitude": "-78.555", "name": "ADOOR", "description": null}, {"__geopoint__": true, "latitude": "28.34333333333333333333333333", "longitude": "-79.035", "name": "JORAY", "description": null}, {"__geopoint__": true, "latitude": "27.145", "longitude": "-79.4", "name": "OSOGY", "description": null}, {"__geopoint__": true, "latitude": "26.66", "longitude": "-79.54833333333333333333333333", "name": "AMZAR", "description": null}, {"__geopoint__": true, "latitude": "26.53166666666666666666666667", "longitude": "-79.62", "name": "STAPL", "description": null}, {"__geopoint__": true, "latitude": "26.46666666666666666666666667", "longitude": "-79.73", "name": "MILSY", "description": null}, {"__geopoint__": true, "latitude": "26.38333333333333333333333333", "longitude": "-79.87666666666666666666666667", "name": "BOYUR", "description": null}, {"__geopoint__": true, "latitude": "26.255", "longitude": "-80.01333333333333333333333333", "name": "HILEY", "description": null}, {"__geopoint__": true, "latitude": "25.96333333333333333333333333", "longitude": "-80.095", "name": "KAINS", "description": null}, {"__geopoint__": true, "latitude": "25.91833333333333333333333333", "longitude": "-80.175", "name": "CIMBA", "description": null}, {"__geopoint__": true, "latitude": "25.88333333333333333333333333", "longitude": "-80.27833333333333333333333333", "name": "JESSS", "description": null}, {"__geopoint__": true, "latitude": "25.85", "longitude": "-80.84666666666666666666666667", "name": "RUBOE", "description": null}, {"__geopoint__": true, "latitude": "25.795", "longitude": "-80.29", "name": "KMIA", "description": null}]