[{"__geopoint__": true, "latitude": "13.19833333333333333333333333", "longitude": "77.705", "name": "VOBL", "description": null}, {"__geopoint__": true, "latitude": "13.205", "longitude": "77.84333333333333333333333333", "name": "BL401", "description": null}, {"__geopoint__": true, "latitude": "13.525", "longitude": "77.8", "name": "BL406", "description": null}, {"__geopoint__": true, "latitude": "14.59333333333333333333333333", "longitude": "77.09", "name": "OPAMO", "description": null}, {"__geopoint__": true, "latitude": "15.165", "longitude": "76.88", "name": "BBI", "description": null}, {"__geopoint__": true, "latitude": "15.69333333333333333333333333", "longitude": "76.68666666666666666666666667", "name": "VAGPU", "description": null}, {"__geopoint__": true, "latitude": "16.60666666666666666666666667", "longitude": "75.46666666666666666666666667", "name": "AGELA", "description": null}, {"__geopoint__": true, "latitude": "17.21", "longitude": "74.25833333333333333333333333", "name": "ENTUG", "description": null}, {"__geopoint__": true, "latitude": "17.72333333333333333333333333", "longitude": "73.21833333333333333333333333", "name": "BEKUT", "description": null}, {"__geopoint__": true, "latitude": "19.55166666666666666666666667", "longitude": "69.35", "name": "SUGID", "description": null}, {"__geopoint__": true, "latitude": "21.11666666666666666666666667", "longitude": "66.0", "name": "DOGET", "description": null}, {"__geopoint__": true, "latitude": "22.44166666666666666666666667", "longitude": "63.11666666666666666666666667", "name": "PARAR", "description": null}, {"__geopoint__": true, "latitude": "23.07", "longitude": "61.73666666666666666666666667", "name": "SETSI", "description": null}, {"__geopoint__": true, "latitude": "23.31666666666666666666666667", "longitude": "61.18333333333333333333333333", "name": "VAXIM", "description": null}, {"__geopoint__": true, "latitude": "24.35333333333333333333333333", "longitude": "60.09833333333333333333333333", "name": "ASLOM", "description": null}, {"__geopoint__": true, "latitude": "24.805", "longitude": "59.845", "name": "MESPO", "description": null}, {"__geopoint__": true, "latitude": "25.20333333333333333333333333", "longitude": "59.35833333333333333333333333", "name": "PEDEX", "description": null}, {"__geopoint__": true, "latitude": "26.56833333333333333333333333", "longitude": "57.64666666666666666666666667", "name": "NOVSO", "description": null}, {"__geopoint__": true, "latitude": "26.77333333333333333333333333", "longitude": "57.38333333333333333333333333", "name": "MELMI", "description": null}, {"__geopoint__": true, "latitude": "28.18666666666666666666666667", "longitude": "56.54833333333333333333333333", "name": "TAVNO", "description": null}, {"__geopoint__": true, "latitude": "28.8", "longitude": "56.17166666666666666666666667", "name": "ASMET", "description": null}, {"__geopoint__": true, "latitude": "29.55666666666666666666666667", "longitude": "55.66", "name": "SRJ", "description": null}, {"__geopoint__": true, "latitude": "30.03666666666666666666666667", "longitude": "55.38333333333333333333333333", "name": "DAVUT", "description": null}, {"__geopoint__": true, "latitude": "30.76", "longitude": "54.96166666666666666666666667", "name": "DESLA", "description": null}, {"__geopoint__": true, "latitude": "31.45333333333333333333333333", "longitude": "54.55", "name": "GADPU", "description": null}, {"__geopoint__": true, "latitude": "31.89833333333333333333333333", "longitude": "54.28333333333333333333333333", "name": "YZD", "description": null}, {"__geopoint__": true, "latitude": "32.83", "longitude": "53.42833333333333333333333333", "name": "PAVIT", "description": null}, {"__geopoint__": true, "latitude": "34.28666666666666666666666667", "longitude": "52.04666666666666666666666667", "name": "VAVIN", "description": null}, {"__geopoint__": true, "latitude": "34.59", "longitude": "51.75333333333333333333333333", "name": "EGTOS", "description": null}, {"__geopoint__": true, "latitude": "35.445", "longitude": "50.905", "name": "RUS", "description": null}, {"__geopoint__": true, "latitude": "35.74166666666666666666666667", "longitude": "50.35333333333333333333333333", "name": "ELIPO", "description": null}, {"__geopoint__": true, "latitude": "35.98833333333333333333333333", "longitude": "49.89", "name": "MIVAK", "description": null}, {"__geopoint__": true, "latitude": "36.55666666666666666666666667", "longitude": "48.79166666666666666666666667", "name": "SUTBU", "description": null}, {"__geopoint__": true, "latitude": "36.78", "longitude": "48.35333333333333333333333333", "name": "ZAJ", "description": null}, {"__geopoint__": true, "latitude": "37.68", "longitude": "46.96166666666666666666666667", "name": "RUDAD", "description": null}, {"__geopoint__": true, "latitude": "38.14833333333333333333333333", "longitude": "46.21333333333333333333333333", "name": "TBZ", "description": null}, {"__geopoint__": true, "latitude": "38.47333333333333333333333333", "longitude": "45.35166666666666666666666667", "name": "BORES", "description": null}, {"__geopoint__": true, "latitude": "38.91", "longitude": "44.20833333333333333333333333", "name": "DASIS", "description": null}, {"__geopoint__": true, "latitude": "39.95666666666666666666666667", "longitude": "41.20666666666666666666666667", "name": "ERZ", "description": null}, {"__geopoint__": true, "latitude": "40.41833333333333333333333333", "longitude": "39.67666666666666666666666667", "name": "SONAD", "description": null}, {"__geopoint__": true, "latitude": "40.64", "longitude": "38.90333333333333333333333333", "name": "BAMLA", "description": null}, {"__geopoint__": true, "latitude": "41.265", "longitude": "36.54833333333333333333333333", "name": "CRM", "description": null}, {"__geopoint__": true, "latitude": "41.95166666666666666666666667", "longitude": "33.70666666666666666666666667", "name": "INB", "description": null}, {"__geopoint__": true, "latitude": "42.07166666666666666666666667", "longitude": "33.07833333333333333333333333", "name": "ADUMU", "description": null}, {"__geopoint__": true, "latitude": "42.24666666666666666666666667", "longitude": "32.205", "name": "GIPDA", "description": null}, {"__geopoint__": true, "latitude": "42.26333333333333333333333333", "longitude": "32.12333333333333333333333333", "name": "ASBEP", "description": null}, {"__geopoint__": true, "latitude": "42.61", "longitude": "30.265", "name": "ODERO", "description": null}, {"__geopoint__": true, "latitude": "43.735", "longitude": "28.50166666666666666666666667", "name": "LUGEB", "description": null}, {"__geopoint__": true, "latitude": "44.905", "longitude": "25.75333333333333333333333333", "name": "BALBI", "description": null}, {"__geopoint__": true, "latitude": "45.96", "longitude": "23.08833333333333333333333333", "name": "NEPOT", "description": null}, {"__geopoint__": true, "latitude": "46.35166666666666666666666667", "longitude": "22.24166666666666666666666667", "name": "EVRIK", "description": null}, {"__geopoint__": true, "latitude": "46.68666666666666666666666667", "longitude": "21.49666666666666666666666667", "name": "BUDOP", "description": null}, {"__geopoint__": true, "latitude": "48.07333333333333333333333333", "longitude": "19.12666666666666666666666667", "name": "PATAK", "description": null}, {"__geopoint__": true, "latitude": "48.865", "longitude": "17.71", "name": "LALES", "description": null}, {"__geopoint__": true, "latitude": "48.98", "longitude": "17.30166666666666666666666667", "name": "BABUS", "description": null}, {"__geopoint__": true, "latitude": "50.065", "longitude": "12.405", "name": "OKG", "description": null}, {"__geopoint__": true, "latitude": "50.07", "longitude": "12.09333333333333333333333333", "name": "ABERU", "description": null}, {"__geopoint__": true, "latitude": "50.07333333333333333333333333", "longitude": "11.63", "name": "KULOK", "description": null}, {"__geopoint__": true, "latitude": "50.075", "longitude": "11.22666666666666666666666667", "name": "LONLI", "description": null}, {"__geopoint__": true, "latitude": "50.075", "longitude": "10.72833333333333333333333333", "name": "SULUS", "description": null}, {"__geopoint__": true, "latitude": "50.07333333333333333333333333", "longitude": "10.24333333333333333333333333", "name": "KOMIB", "description": null}, {"__geopoint__": true, "latitude": "50.07333333333333333333333333", "longitude": "10.09833333333333333333333333", "name": "RASPU", "description": null}, {"__geopoint__": true, "latitude": "50.07", "longitude": "9.783333333333333333333333333", "name": "OSBIT", "description": null}, {"__geopoint__": true, "latitude": "50.06666666666666666666666667", "longitude": "9.486666666666666666666666667", "name": "LOHRE", "description": null}, {"__geopoint__": true, "latitude": "50.06333333333333333333333333", "longitude": "9.19", "name": "ESATI", "description": null}, {"__geopoint__": true, "latitude": "50.05666666666666666666666667", "longitude": "8.8", "name": "BOMBI", "description": null}, {"__geopoint__": true, "latitude": "50.05333333333333333333333333", "longitude": "8.636666666666666666666666667", "name": "FFM", "description": null}, {"__geopoint__": true, "latitude": "50.04833333333333333333333333", "longitude": "8.078333333333333333333333333", "name": "RUDUS", "description": null}, {"__geopoint__": true, "latitude": "50.03166666666666666666666667", "longitude": "7.138333333333333333333333333", "name": "OBIGA", "description": null}, {"__geopoint__": true, "latitude": "50.025", "longitude": "6.908333333333333333333333333", "name": "ADENU", "description": null}, {"__geopoint__": true, "latitude": "50.02", "longitude": "6.711666666666666666666666667", "name": "NOSPA", "description": null}, {"__geopoint__": true, "latitude": "49.74333333333333333333333333", "longitude": "5.871666666666666666666666667", "name": "IDOSA", "description": null}, {"__geopoint__": true, "latitude": "49.625", "longitude": "5.371666666666666666666666667", "name": "TOLVU", "description": null}, {"__geopoint__": true, "latitude": "49.59166666666666666666666667", "longitude": "5.213333333333333333333333333", "name": "RAPOR", "description": null}, {"__geopoint__": true, "latitude": "49.595", "longitude": "4.781666666666666666666666667", "name": "VEDUS", "description": null}, {"__geopoint__": true, "latitude": "49.59666666666666666666666667", "longitude": "4.066666666666666666666666667", "name": "XERAM", "description": null}, {"__geopoint__": true, "latitude": "49.475", "longitude": "3.778333333333333333333333333", "name": "ENORI", "description": null}, {"__geopoint__": true, "latitude": "49.45", "longitude": "3.631666666666666666666666667", "name": "DEVIM", "description": null}, {"__geopoint__": true, "latitude": "49.42", "longitude": "3.451666666666666666666666667", "name": "LORNI", "description": null}, {"__geopoint__": true, "latitude": "49.18166666666666666666666667", "longitude": "2.573333333333333333333333333", "name": "BUNOR", "description": null}, {"__geopoint__": true, "latitude": "49.17666666666666666666666667", "longitude": "2.37", "name": "PG501", "description": null}, {"__geopoint__": true, "latitude": "49.01", "longitude": "2.548333333333333333333333333", "name": "LFPG", "description": null}]