[{"__geopoint__": true, "latitude": "49.01", "longitude": "2.548333333333333333333333333", "name": "---------------------------------------------------LFPG", "description": null}, {"__geopoint__": true, "latitude": "48.99166666666666666666666667", "longitude": "2.465", "name": "PG263", "description": null}, {"__geopoint__": true, "latitude": "48.985", "longitude": "2.346666666666666666666666667", "name": "PG264", "description": null}, {"__geopoint__": true, "latitude": "48.975", "longitude": "2.176666666666666666666666667", "name": "PG265", "description": null}, {"__geopoint__": true, "latitude": "49.82666666666666666666666667", "longitude": "2.755", "name": "NURMO", "description": null}, {"__geopoint__": true, "latitude": "49.91333333333333333333333333", "longitude": "2.84", "name": "PERON", "description": null}, {"__geopoint__": true, "latitude": "50.0", "longitude": "2.925", "name": "SULEX", "description": null}, {"__geopoint__": true, "latitude": "50.22833333333333333333333333", "longitude": "3.151666666666666666666666667", "name": "CMB", "description": null}, {"__geopoint__": true, "latitude": "50.405", "longitude": "3.275", "name": "VEKIN", "description": null}, {"__geopoint__": true, "latitude": "50.515", "longitude": "3.361666666666666666666666667", "name": "ADUTO", "description": null}, {"__geopoint__": true, "latitude": "51.48166666666666666666666667", "longitude": "4.05", "name": "VICOT", "description": null}, {"__geopoint__": true, "latitude": "53.88166666666666666666666667", "longitude": "6.5", "name": "AGISU", "description": null}, {"__geopoint__": true, "latitude": "55.0", "longitude": "7.876666666666666666666666667", "name": "TUSKA", "description": null}, {"__geopoint__": true, "latitude": "57.205", "longitude": "11.27333333333333333333333333", "name": "GOTEX", "description": null}, {"__geopoint__": true, "latitude": "57.31833333333333333333333333", "longitude": "11.49833333333333333333333333", "name": "LOBBI", "description": null}, {"__geopoint__": true, "latitude": "60.25166666666666666666666667", "longitude": "19.11166666666666666666666667", "name": "EVLAN", "description": null}, {"__geopoint__": true, "latitude": "62.66666666666666666666666667", "longitude": "31.375", "name": "KOKAT", "description": null}, {"__geopoint__": true, "latitude": "62.74", "longitude": "31.98166666666666666666666667", "name": "LULOR", "description": null}, {"__geopoint__": true, "latitude": "62.825", "longitude": "32.725", "name": "PABMA", "description": null}, {"__geopoint__": true, "latitude": "63.14", "longitude": "35.82833333333333333333333333", "name": "UTITA", "description": null}, {"__geopoint__": true, "latitude": "63.21166666666666666666666667", "longitude": "36.66666666666666666666666667", "name": "DELUL", "description": null}, {"__geopoint__": true, "latitude": "63.26166666666666666666666667", "longitude": "37.32", "name": "INDOS", "description": null}, {"__geopoint__": true, "latitude": "63.36666666666666666666666667", "longitude": "38.78333333333333333333333333", "name": "ARNER", "description": null}, {"__geopoint__": true, "latitude": "63.44833333333333333333333333", "longitude": "39.965", "name": "RUPAD", "description": null}, {"__geopoint__": true, "latitude": "63.58166666666666666666666667", "longitude": "42.31666666666666666666666667", "name": "TODSA", "description": null}, {"__geopoint__": true, "latitude": "63.66333333333333333333333333", "longitude": "44.24", "name": "TUSUP", "description": null}, {"__geopoint__": true, "latitude": "63.7", "longitude": "45.34", "name": "PINEG", "description": null}, {"__geopoint__": true, "latitude": "63.70666666666666666666666667", "longitude": "47.705", "name": "GOSUM", "description": null}, {"__geopoint__": true, "latitude": "63.70333333333333333333333333", "longitude": "48.14333333333333333333333333", "name": "NIDMA", "description": null}, {"__geopoint__": true, "latitude": "63.56", "longitude": "53.79333333333333333333333333", "name": "UHT", "description": null}, {"__geopoint__": true, "latitude": "63.48", "longitude": "55.4", "name": "9AFR/264/LFPG-RKSIOKRAN", "description": null}, {"__geopoint__": true, "latitude": "63.45333333333333333333333333", "longitude": "55.86", "name": "ODMOR", "description": null}, {"__geopoint__": true, "latitude": "63.33", "longitude": "57.72333333333333333333333333", "name": "EPOTI", "description": null}, {"__geopoint__": true, "latitude": "63.27", "longitude": "58.52833333333333333333333333", "name": "GOGAT", "description": null}, {"__geopoint__": true, "latitude": "63.17166666666666666666666667", "longitude": "59.71166666666666666666666667", "name": "ERUSA", "description": null}, {"__geopoint__": true, "latitude": "62.46666666666666666666666667", "longitude": "66.03166666666666666666666667", "name": "SORLI", "description": null}, {"__geopoint__": true, "latitude": "62.32666666666666666666666667", "longitude": "67.72166666666666666666666667", "name": "ABGIL", "description": null}, {"__geopoint__": true, "latitude": "61.995", "longitude": "70.97", "name": "LARTU", "description": null}, {"__geopoint__": true, "latitude": "61.93666666666666666666666667", "longitude": "71.38666666666666666666666667", "name": "NEGNA", "description": null}, {"__geopoint__": true, "latitude": "61.78333333333333333333333333", "longitude": "72.44666666666666666666666667", "name": "OGIKA", "description": null}, {"__geopoint__": true, "latitude": "61.5", "longitude": "74.24833333333333333333333333", "name": "ULGUN", "description": null}, {"__geopoint__": true, "latitude": "61.28666666666666666666666667", "longitude": "75.135", "name": "APRAN", "description": null}, {"__geopoint__": true, "latitude": "61.15666666666666666666666667", "longitude": "75.65166666666666666666666667", "name": "TETSI", "description": null}, {"__geopoint__": true, "latitude": "60.94333333333333333333333333", "longitude": "76.46833333333333333333333333", "name": "NJC", "description": null}, {"__geopoint__": true, "latitude": "60.83333333333333333333333333", "longitude": "77.03333333333333333333333333", "name": "PAROM", "description": null}, {"__geopoint__": true, "latitude": "60.71", "longitude": "77.65833333333333333333333333", "name": "SOREB", "description": null}, {"__geopoint__": true, "latitude": "60.17833333333333333333333333", "longitude": "80.38333333333333333333333333", "name": "SOTIM", "description": null}, {"__geopoint__": true, "latitude": "58.64", "longitude": "86.73", "name": "CE", "description": null}, {"__geopoint__": true, "latitude": "58.205", "longitude": "88.03", "name": "RONIK", "description": null}, {"__geopoint__": true, "latitude": "57.71833333333333333333333333", "longitude": "89.40666666666666666666666667", "name": "NOVRA", "description": null}, {"__geopoint__": true, "latitude": "56.96666666666666666666666667", "longitude": "91.41666666666666666666666667", "name": "SURIP", "description": null}, {"__geopoint__": true, "latitude": "56.265", "longitude": "92.88", "name": "USOPA", "description": null}, {"__geopoint__": true, "latitude": "55.265", "longitude": "94.87833333333333333333333333", "name": "RO", "description": null}, {"__geopoint__": true, "latitude": "54.75", "longitude": "96.66666666666666666666666667", "name": "LONKA", "description": null}, {"__geopoint__": true, "latitude": "54.34166666666666666666666667", "longitude": "97.94833333333333333333333333", "name": "BUMER", "description": null}, {"__geopoint__": true, "latitude": "52.44166666666666666666666667", "longitude": "103.195", "name": "BD", "description": null}, {"__geopoint__": true, "latitude": "51.95666666666666666666666667", "longitude": "103.9866666666666666666666667", "name": "DOBOS", "description": null}, {"__geopoint__": true, "latitude": "51.57666666666666666666666667", "longitude": "104.5716666666666666666666667", "name": "ADIDA", "description": null}, {"__geopoint__": true, "latitude": "51.24666666666666666666666667", "longitude": "105.0816666666666666666666667", "name": "BABTA", "description": null}, {"__geopoint__": true, "latitude": "50.80333333333333333333333333", "longitude": "105.7483333333333333333333333", "name": "GIROK", "description": null}, {"__geopoint__": true, "latitude": "50.30833333333333333333333333", "longitude": "106.4683333333333333333333333", "name": "SERNA", "description": null}, {"__geopoint__": true, "latitude": "48.96166666666666666666666667", "longitude": "108.305", "name": "PRING", "description": null}, {"__geopoint__": true, "latitude": "48.025", "longitude": "109.505", "name": "GOBEZ", "description": null}, {"__geopoint__": true, "latitude": "47.89833333333333333333333333", "longitude": "109.6616666666666666666666667", "name": "ZAMUS", "description": null}, {"__geopoint__": true, "latitude": "46.205", "longitude": "111.6816666666666666666666667", "name": "MODUN", "description": null}, {"__geopoint__": true, "latitude": "44.78333333333333333333333333", "longitude": "113.25", "name": "POLHO", "description": null}, {"__geopoint__": true, "latitude": "43.915", "longitude": "115.9666666666666666666666667", "name": "HOT", "description": null}, {"__geopoint__": true, "latitude": "43.10666666666666666666666667", "longitude": "116.195", "name": "NUVPU", "description": null}, {"__geopoint__": true, "latitude": "42.185", "longitude": "116.475", "name": "AKPAD", "description": null}, {"__geopoint__": true, "latitude": "41.905", "longitude": "117.295", "name": "VALVA", "description": null}, {"__geopoint__": true, "latitude": "41.49833333333333333333333333", "longitude": "118.445", "name": "UKDUM", "description": null}, {"__geopoint__": true, "latitude": "41.23666666666666666666666667", "longitude": "118.5933333333333333333333333", "name": "OPIMU", "description": null}, {"__geopoint__": true, "latitude": "40.22166666666666666666666667", "longitude": "119.18", "name": "ANOBI", "description": null}, {"__geopoint__": true, "latitude": "39.99833333333333333333333333", "longitude": "119.785", "name": "LC", "description": null}, {"__geopoint__": true, "latitude": "38.71", "longitude": "120.2066666666666666666666667", "name": "ORAVA", "description": null}, {"__geopoint__": true, "latitude": "38.61333333333333333333333333", "longitude": "120.235", "name": "UNSEK", "description": null}, {"__geopoint__": true, "latitude": "38.56166666666666666666666667", "longitude": "120.5516666666666666666666667", "name": "ALARA", "description": null}, {"__geopoint__": true, "latitude": "38.46333333333333333333333333", "longitude": "121.1483333333333333333333333", "name": "MAKNO", "description": null}, {"__geopoint__": true, "latitude": "38.44833333333333333333333333", "longitude": "121.2466666666666666666666667", "name": "NUNDU", "description": null}, {"__geopoint__": true, "latitude": "38.41333333333333333333333333", "longitude": "121.4583333333333333333333333", "name": "DOBGA", "description": null}, {"__geopoint__": true, "latitude": "38.27833333333333333333333333", "longitude": "122.2516666666666666666666667", "name": "POVAG", "description": null}, {"__geopoint__": true, "latitude": "38.25", "longitude": "122.4533333333333333333333333", "name": "SANKO", "description": null}, {"__geopoint__": true, "latitude": "38.09833333333333333333333333", "longitude": "122.65", "name": "OBDIS", "description": null}, {"__geopoint__": true, "latitude": "37.56666666666666666666666667", "longitude": "123.3333333333333333333333333", "name": "DONVO", "description": null}, {"__geopoint__": true, "latitude": "37.16666666666666666666666667", "longitude": "124.0", "name": "AGAVO", "description": null}, {"__geopoint__": true, "latitude": "37.17666666666666666666666667", "longitude": "124.245", "name": "RILRO", "description": null}, {"__geopoint__": true, "latitude": "37.18", "longitude": "124.415", "name": "GONAV", "description": null}, {"__geopoint__": true, "latitude": "37.19", "longitude": "124.8316666666666666666666667", "name": "BODOL", "description": null}, {"__geopoint__": true, "latitude": "37.20166666666666666666666667", "longitude": "125.4866666666666666666666667", "name": "REBIT", "description": null}, {"__geopoint__": true, "latitude": "37.13833333333333333333333333", "longitude": "125.8016666666666666666666667", "name": "COWAY", "description": null}, {"__geopoint__": true, "latitude": "37.14166666666666666666666667", "longitude": "126.0566666666666666666666667", "name": "PINGO", "description": null}, {"__geopoint__": true, "latitude": "37.18", "longitude": "126.335", "name": "CW001", "description": null}, {"__geopoint__": true, "latitude": "37.115", "longitude": "126.3516666666666666666666667", "name": "CW002", "description": null}, {"__geopoint__": true, "latitude": "37.06", "longitude": "126.4", "name": "CW003", "description": null}, {"__geopoint__": true, "latitude": "37.025", "longitude": "126.4716666666666666666666667", "name": "CW004", "description": null}, {"__geopoint__": true, "latitude": "37.015", "longitude": "126.5533333333333333333333333", "name": "CW005", "description": null}, {"__geopoint__": true, "latitude": "37.18166666666666666666666667", "longitude": "126.5433333333333333333333333", "name": "PAMBI", "description": null}, {"__geopoint__": true, "latitude": "37.46333333333333333333333333", "longitude": "126.44", "name": "RKSI", "description": null}]