[{"__geopoint__": true, "latitude": "49.01", "longitude": "2.548333333333333333333333333", "name": "LFPG", "description": null}, {"__geopoint__": true, "latitude": "49.01", "longitude": "2.823333333333333333333333333", "name": "PG084", "description": null}, {"__geopoint__": true, "latitude": "49.785", "longitude": "2.368333333333333333333333333", "name": "ATREX", "description": null}, {"__geopoint__": true, "latitude": "50.37166666666666666666666667", "longitude": "2.026666666666666666666666667", "name": "VESAN", "description": null}, {"__geopoint__": true, "latitude": "50.65666666666666666666666667", "longitude": "1.636666666666666666666666667", "name": "RATUK", "description": null}, {"__geopoint__": true, "latitude": "50.78", "longitude": "1.466666666666666666666666667", "name": "SOVAT", "description": null}, {"__geopoint__": true, "latitude": "51.065", "longitude": "1.066666666666666666666666667", "name": "SANDY", "description": null}, {"__geopoint__": true, "latitude": "51.33166666666666666666666667", "longitude": "0.035", "name": "BIG", "description": null}, {"__geopoint__": true, "latitude": "51.35833333333333333333333333", "longitude": "-0.1766666666666666666666666667", "name": "GOXUL", "description": null}, {"__geopoint__": true, "latitude": "51.47", "longitude": "-1.048333333333333333333333333", "name": "LINDY", "description": null}, {"__geopoint__": true, "latitude": "51.48", "longitude": "-1.123333333333333333333333333", "name": "NORRY", "description": null}, {"__geopoint__": true, "latitude": "51.49166666666666666666666667", "longitude": "-1.22", "name": "CPT", "description": null}, {"__geopoint__": true, "latitude": "51.52", "longitude": "-1.455", "name": "KENET", "description": null}, {"__geopoint__": true, "latitude": "51.56333333333333333333333333", "longitude": "-1.71", "name": "GAVGO", "description": null}, {"__geopoint__": true, "latitude": "51.77666666666666666666666667", "longitude": "-3.26", "name": "DIKAS", "description": null}, {"__geopoint__": true, "latitude": "51.995", "longitude": "-5.04", "name": "STU", "description": null}, {"__geopoint__": true, "latitude": "51.95333333333333333333333333", "longitude": "-6.24", "name": "BANBA", "description": null}, {"__geopoint__": true, "latitude": "51.0", "longitude": "-15.0", "name": "DINIM", "description": null}, {"__geopoint__": true, "latitude": "52.0", "longitude": "-20.0", "name": "", "description": null}, {"__geopoint__": true, "latitude": "51.0", "longitude": "-30.0", "name": "", "description": null}, {"__geopoint__": true, "latitude": "50.0", "longitude": "-40.0", "name": "", "description": null}, {"__geopoint__": true, "latitude": "48.0", "longitude": "-50.0", "name": "", "description": null}, {"__geopoint__": true, "latitude": "47.5", "longitude": "-52.0", "name": "NICSO", "description": null}, {"__geopoint__": true, "latitude": "43.0", "longitude": "-60.0", "name": "CARAC", "description": null}, {"__geopoint__": true, "latitude": "42.38166666666666666666666667", "longitude": "-61.20166666666666666666666667", "name": "NOVOK", "description": null}, {"__geopoint__": true, "latitude": "38.63166666666666666666666667", "longitude": "-66.66666666666666666666666667", "name": "DRYED", "description": null}, {"__geopoint__": true, "latitude": "37.26666666666666666666666667", "longitude": "-68.97333333333333333333333333", "name": "TILED", "description": null}, {"__geopoint__": true, "latitude": "35.63833333333333333333333333", "longitude": "-71.52666666666666666666666667", "name": "ATUGI", "description": null}, {"__geopoint__": true, "latitude": "33.24166666666666666666666667", "longitude": "-73.39666666666666666666666667", "name": "OMALA", "description": null}, {"__geopoint__": true, "latitude": "29.60666666666666666666666667", "longitude": "-76.865", "name": "SNAGY", "description": null}, {"__geopoint__": true, "latitude": "26.68", "longitude": "-80.08666666666666666666666667", "name": "PBI", "description": null}, {"__geopoint__": true, "latitude": "24.58666666666666666666666667", "longitude": "-81.8", "name": "EYW", "description": null}, {"__geopoint__": true, "latitude": "24.0", "longitude": "-83.05", "name": "CANOA", "description": null}, {"__geopoint__": true, "latitude": "22.60666666666666666666666667", "longitude": "-85.06166666666666666666666667", "name": "MUPKI", "description": null}, {"__geopoint__": true, "latitude": "21.96333333333333333333333333", "longitude": "-85.98166666666666666666666667", "name": "NOSAT", "description": null}, {"__geopoint__": true, "latitude": "21.87333333333333333333333333", "longitude": "-86.06666666666666666666666667", "name": "XOPUT", "description": null}, {"__geopoint__": true, "latitude": "21.52833333333333333333333333", "longitude": "-86.39", "name": "LETIS", "description": null}, {"__geopoint__": true, "latitude": "21.025", "longitude": "-86.85833333333333333333333333", "name": "CUN", "description": null}, {"__geopoint__": true, "latitude": "21.04333333333333333333333333", "longitude": "-86.87333333333333333333333333", "name": "MMUN", "description": null}]